,City,Cloudiness,Country,Date,Humidity,Lat,Lng,Max Temp,Wind Speed
0,cabo san lucas,20,MX,1555786888,57,22.89,-109.91,307.04,6.7
1,butaritari,100,KI,1555787564,79,3.07,172.79,301.107,6.57
3,esperance,75,TT,1555786891,62,10.24,-61.45,304.82,7.7
4,saskylakh,83,RU,1555787300,95,71.97,114.09,260.307,1.8
5,khatanga,63,RU,1555787564,92,71.98,102.47,252.507,3.71
6,port elizabeth,1,US,1555787557,43,39.31,-74.98,297.04,5.1
7,iqaluit,20,CA,1555787562,71,63.75,-68.52,259.15,8.7
8,new norfolk,0,AU,1555787536,87,-42.78,147.06,291.48,2.1
9,mar del plata,0,AR,1555787565,30,-46.43,-67.52,292.607,5.91
10,clyde river,75,CA,1555783200,77,70.47,-68.59,255.15,10.3
11,kaitangata,64,NZ,1555787478,83,-46.28,169.85,284.26,1.79
12,sambava,70,MG,1555787565,97,-14.27,50.17,295.707,1.19
13,provideniya,13,RU,1555787565,78,64.42,-173.23,257.507,1.9
14,paita,0,PE,1555783200,290,-5.09,-81.11,290.15,5.7
15,bredasdorp,13,ZA,1555786861,72,-34.53,20.04,290.15,1.5
16,kavieng,80,PG,1555787566,76,-2.57,150.8,301.007,1.29
17,sao filipe,2,CV,1555787293,80,14.9,-24.5,295.207,7.91
18,albany,90,US,1555787462,73,42.65,-73.75,294.15,5.7
19,qaanaaq,57,GL,1555787567,83,77.48,-69.36,250.807,1.65
20,lagoa,0,PT,1555787543,55,37.14,-8.45,292.59,3.1
21,avarua,1,CK,1555785000,64,-21.21,-159.78,296.15,1.5
22,xichang,49,CN,1555787568,76,27.88,102.25,283.207,1.9
23,mahebourg,75,MU,1555787344,83,-20.41,57.7,299.15,5.7
24,ponta do sol,0,BR,1555787568,56,-20.63,-46,298.607,2.71
25,plettenberg bay,4,ZA,1555787568,88,-34.05,23.37,287.307,1.31
26,asheville,90,US,1555787311,87,35.6,-82.55,284.26,4.1
27,grindavik,75,IS,1555785000,87,63.84,-22.43,280.93,11.8
28,pahrump,1,US,1555787134,16,36.21,-115.98,302.04,9.3
29,itai,6,BR,1555787485,56,-23.42,-49.09,301.007,2.25
30,port alfred,1,ZA,1555787535,87,-33.59,26.89,290.37,3.13
31,mayumba,100,GA,1555787569,83,-3.44,10.65,301.207,4.58
32,busselton,14,AU,1555787534,66,-33.64,115.35,278.15,3.29
33,geraldton,75,CA,1555785060,37,49.72,-86.95,284.15,7.2
34,barrow,2,AR,1555787293,49,-38.31,-60.23,291.207,5.11
35,nikolskoye,40,RU,1555787507,65,59.7,30.79,278.15,2
36,ushuaia,90,AR,1555783200,100,-54.81,-68.31,279.15,11.3
37,saint george,40,GR,1555787006,81,39.45,22.34,285.37,4.1
38,hithadhoo,100,MV,1555787571,80,-0.6,73.08,302.507,6.22
39,teguldet,46,RU,1555787571,89,57.31,88.17,269.607,2.21
40,guerrero negro,3,MX,1555787571,91,27.97,-114.04,287.907,6.35
41,sangmelima,97,CM,1555787571,97,2.93,11.98,293.607,0.81
42,boca do acre,91,BR,1555787571,88,-8.76,-67.39,302.007,1.45
43,rikitea,19,PF,1555787571,82,-23.12,-134.97,299.007,7.6
44,vaini,8,IN,1555787572,71,15.34,74.49,298.107,1.09
45,athabasca,17,CA,1555787572,37,54.72,-113.29,281.907,5.87
46,rocha,5,UY,1555787572,49,-34.48,-54.34,293.507,4.46
47,hasaki,75,JP,1555787483,87,35.73,140.83,286.15,3.1
48,cape town,20,ZA,1555787164,77,-33.93,18.42,289.82,5.1
49,jieshi,27,CN,1555787344,10,22.82,115.83,294.82,0.71
50,tuktoyaktuk,90,CA,1555783200,85,69.44,-133.03,266.15,4.1
51,eenhana,69,NA,1555783200,28,-17.48,16.34,303.15,2.1
52,mount gambier,90,AU,1555783560,46,-37.83,140.78,295.15,10.8
53,puerto ayora,40,EC,1555786904,70,-0.74,-90.35,303.15,4.6
56,vestmannaeyjar,75,IS,1555783200,87,63.44,-20.27,279.15,10.3
57,sitka,0,US,1555786859,25,37.17,-99.65,302.04,9.39
58,hermanus,25,ZA,1555786861,95,-34.42,19.24,289.26,2.85
59,dunda,30,IN,1555787575,65,30.62,78.32,290.307,2.3
60,apac,67,UG,1555787575,62,1.98,32.53,297.007,1.96
61,meadow lake,20,CA,1555783200,28,54.13,-108.44,286.15,9.3
62,yate,0,GB,1555787569,52,51.54,-2.41,294.26,3.1
63,general roca,0,AR,1555783200,25,-39.03,-67.58,296.15,3.1
64,staryy nadym,63,RU,1555787576,92,65.61,72.68,259.807,2.3
65,thompson,40,CA,1555783200,63,55.74,-97.86,272.15,5.7
66,goundam,0,ML,1555787576,8,16.42,-3.66,312.007,1.58
67,jamestown,100,AU,1555787577,79,-33.21,138.6,289.907,4.5
68,curitibanos,100,BR,1555787577,85,-27.29,-50.58,294.507,2.2
69,caravelas,1,BR,1555787577,65,-17.73,-39.27,303.107,3.13
70,malartic,75,CA,1555783200,39,48.14,-78.13,284.15,4.6
71,anupgarh,0,IN,1555787578,22,29.19,73.21,304.707,1.84
72,tiksi,70,RU,1555787578,94,71.64,128.87,260.207,3.93
73,castro,75,CL,1555783200,76,-42.48,-73.76,284.15,3.1
74,sudak,71,UA,1555787579,76,44.85,34.97,275.807,3.66
75,atbasar,28,KZ,1555787579,53,51.81,68.36,275.107,2.61
76,punta arenas,0,CL,1555786990,62,-53.16,-70.91,285.15,16.5
77,jardim,0,BR,1555787579,50,-21.48,-56.15,305.907,3.18
78,hobart,0,AU,1555786822,87,-42.88,147.33,291.48,2.1
79,ubinskoye,18,RU,1555787580,61,55.31,79.68,274.807,3.4
81,puerto colombia,40,CO,1555783200,59,10.99,-74.96,307.15,6.2
82,ayan,80,TR,1555787580,94,40.67,33.6,269.507,2.84
83,severo-kurilsk,81,RU,1555787581,82,50.68,156.12,274.507,6.68
84,grand gaube,75,MU,1555787344,83,-20.01,57.66,299.15,5.7
85,half moon bay,90,US,1555787550,82,37.46,-122.43,289.82,8.2
86,kapaa,75,US,1555787019,69,22.08,-159.32,298.15,8.2
87,antalaha,50,MG,1555787581,99,-14.9,50.28,294.207,1.1
88,santiago del estero,27,AR,1555787335,68,-27.8,-64.26,301.707,4.93
89,mudigere,32,IN,1555787582,85,13.13,75.64,295.407,0.09
90,tucurui,100,BR,1555787582,58,-3.77,-49.67,305.407,1.22
91,gazanjyk,88,TM,1555787582,61,39.24,55.52,283.407,1.12
92,kandrian,85,PG,1555787583,92,-6.21,149.55,296.307,0.87
93,novikovo,71,UA,1555787583,76,45.05,34.56,275.807,3.66
94,duleek,0,IE,1555787567,59,53.66,-6.41,292.15,1.5
95,kostino,75,BG,1555786817,75,41.7,25.3,284.26,2.6
96,tombouctou,0,ML,1555787584,7,16.77,-3.01,311.607,1.64
97,cidreira,100,BR,1555787584,48,-30.17,-50.22,300.107,2.91
98,mataura,0,NZ,1555787294,97,-46.19,168.86,281.207,0.34
99,roald,75,NO,1555787403,76,62.58,6.12,287.15,10.3
101,marathon,90,CA,1555783200,34,48.72,-86.38,282.15,5.7
102,chuy,45,UY,1555787585,64,-33.69,-53.46,293.007,6.32
103,songjianghe,86,CN,1555787585,93,42.18,127.48,275.107,1.46
104,dickinson,1,US,1555787113,39,46.88,-102.79,292.59,6.7
105,dikson,100,RU,1555787586,88,73.51,80.55,256.007,6.87
106,howick,95,ZA,1555787498,30,-29.48,30.22,293.15,1.6
107,ca mau,51,VN,1555787545,74,9.18,105.15,301.407,1.93
108,atuona,21,PF,1555787587,75,-9.8,-139.03,301.507,5.69
109,gizo,40,IL,1555787581,63,31.8,34.94,290.15,3.6
110,georgetown,75,GY,1555783200,55,6.8,-58.16,305.15,6.2
111,ancud,75,CL,1555783200,76,-41.87,-73.83,284.15,3.1
112,broken hill,100,AU,1555783200,35,-31.97,141.45,294.15,3.1
113,saint-georges,100,CA,1555786889,95,46.12,-70.67,278.71,1.34
114,carlsbad,0,CZ,1555787355,33,50.23,12.87,289.82,2.6
115,koratla,62,IN,1555787589,30,18.82,78.72,307.307,2.89
116,bordighera,0,IT,1555787262,55,43.79,7.66,294.15,6.2
118,tasiilaq,75,GL,1555782600,93,65.61,-37.64,274.15,11.8
119,chokurdakh,0,RU,1555787303,89,70.62,147.9,258.207,3.14
120,sistranda,75,NO,1555787368,71,63.73,8.83,283.15,5.7
121,hillsboro,90,US,1555787262,87,39.2,-83.61,284.82,3.6
123,yarada,0,IN,1555783200,78,17.65,83.27,298.15,1
124,lasa,20,CY,1555785000,62,34.92,32.53,288.15,2.1
125,touros,75,BR,1555783200,88,-5.2,-35.46,300.15,3.6
126,yellowknife,90,CA,1555787565,73,62.45,-114.38,269.15,3.1
127,portland,90,US,1555787348,71,45.52,-122.67,287.59,3.1
128,kenai,20,US,1555787224,64,60.55,-151.26,278.15,4.1
129,bluff,0,AU,1555787591,88,-23.58,149.07,292.807,5.95
130,upernavik,100,GL,1555787591,77,72.79,-56.15,262.307,3.24
132,arraial do cabo,20,BR,1555786800,74,-22.97,-42.02,304.15,5.1
133,dalbandin,3,PK,1555787592,14,28.9,64.41,302.907,2.32
134,vagur,100,FO,1555787592,84,61.47,-6.81,280.907,9.39
135,faya,40,SA,1555783200,77,18.39,42.45,294.15,3.6
136,amot,88,NO,1555786828,43,59.57,7.99,285.37,0.89
137,marystown,100,CA,1555786794,100,47.17,-55.16,280.93,1.66
138,raymond,90,US,1555787585,93,43.04,-71.18,295.37,5.1
139,sinnamary,42,GF,1555787594,78,5.38,-52.96,300.807,7.94
140,progreso,40,UY,1555786883,59,-34.68,-56.22,295.37,4.6
141,barinas,64,VE,1555787595,44,8.64,-70.23,306.207,2.4
142,namatanai,100,PG,1555787595,87,-3.66,152.44,298.107,1.15
143,sanming,1,CN,1555787595,96,26.24,117.6,291.807,0.86
144,the pas,1,CA,1555783200,57,53.82,-101.24,283.15,4.1
145,khilok,0,RU,1555787595,37,51.36,110.46,267.807,1.4
146,marawi,72,PH,1555786823,86,8,124.29,297.59,2.24
147,mazabuka,91,ZM,1555787596,74,-15.86,27.75,293.907,1.56
148,moron,80,VE,1555787596,51,10.49,-68.2,305.307,3.57
149,zwedru,100,LR,1555787596,84,6.07,-8.13,299.607,3.25
150,muncar,100,ID,1555787596,94,-8.43,114.34,296.007,1.13
152,bara,100,NG,1555787597,9,10.41,10.6,306.007,1.09
153,labuhan,98,ID,1555787597,98,-2.54,115.51,296.307,0.66
154,vinzili,0,RU,1555785000,59,56.96,65.77,276.15,2
155,samarai,82,PG,1555787597,91,-10.62,150.67,296.107,1.45
156,ambulu,100,ID,1555787598,79,-8.35,113.61,300.507,3.74
157,geilo,80,NO,1555787588,74,60.53,8.21,275.37,5.36
158,lorengau,65,PG,1555787303,92,-2.02,147.27,298.107,0.91
159,barabai,100,ID,1555787598,99,-2.59,115.38,296.607,0.44
160,lock haven,40,US,1555787593,33,41.14,-77.45,297.04,7.2
161,baie-saint-paul,100,CA,1555786819,99,47.44,-70.51,277.59,2.68
162,manzhouli,1,CN,1555787599,26,49.6,117.43,271.507,1.96
163,lazaro cardenas,75,MX,1555787531,13,28.39,-105.62,301.15,2.6
164,conceicao do araguaia,100,BR,1555787599,56,-8.26,-49.26,305.307,1.73
165,ribe,0,DK,1555787484,46,55.33,8.76,288.15,1.5
167,mikkeli,0,FI,1555787405,48,61.69,27.27,280.15,2.1
168,lokosovo,90,RU,1555787601,86,61.13,74.84,265.107,3.57
169,tomatlan,0,MX,1555787601,57,19.93,-105.25,301.807,3.71
170,lebu,100,ET,1555787601,74,8.96,38.73,290.207,2.06
171,gandajika,69,CD,1555787601,63,-6.75,23.95,298.307,1.13
172,zhanaozen,100,KZ,1555787602,56,43.35,52.85,281.107,5.36
173,ribeira grande,40,PT,1555785000,88,38.52,-28.7,290.15,1
174,adrar,0,DZ,1555783200,7,27.87,-0.29,306.15,7.7
175,henties bay,1,NA,1555786926,91,-22.12,14.28,288.15,1.34
176,vizinga,78,RU,1555787603,90,61.08,50.08,273.607,1.88
177,florence,90,US,1555787557,58,34.8,-87.68,289.26,3.6
178,la ronge,75,CA,1555783200,43,55.1,-105.3,284.15,4.6
179,vila franca do campo,20,PT,1555785000,82,37.72,-25.43,290.15,5.1
180,alice springs,100,AU,1555785000,31,-23.7,133.88,291.15,2.1
181,itarema,100,BR,1555787605,79,-2.92,-39.92,301.507,3.79
182,ixtapa,5,MX,1555787422,57,20.71,-105.21,300.15,4.6
183,lata,100,IN,1555787606,94,30.78,78.62,272.007,1.77
184,bernau,0,AT,1555787596,29,48.05,15.8,290.15,0.5
185,santa marta,20,CO,1555787133,70,11.24,-74.21,305.93,3.1
187,marsh harbour,87,BS,1555787428,70,26.54,-77.06,295.007,5.8
188,muros,0,ES,1555787606,42,42.77,-9.06,296.48,7.7
189,rawson,0,AR,1555787608,28,-43.3,-65.11,293.307,4.28
191,dunmore east,77,IE,1555787575,78,52.15,-6.99,290.93,2.48
192,los llanos de aridane,40,ES,1555786915,68,28.66,-17.92,292.15,6.2
194,east london,0,ZA,1555783200,77,-33.02,27.91,289.15,5.7
195,cardston,90,CA,1555787066,80,49.2,-113.32,280.93,1
196,nata,20,CY,1555786810,62,34.78,32.57,288.15,2.1
197,vanimo,74,PG,1555787610,72,-2.67,141.3,301.207,1.28
198,komsomolskiy,100,RU,1555787610,95,67.55,63.78,271.807,5.66
199,bayir,20,TR,1555786200,32,37.27,28.22,285.15,4.6
200,bambous virieux,75,MU,1555787344,83,-20.34,57.76,299.15,5.7
201,basco,1,US,1555787416,23,40.33,-91.2,292.04,2.1
202,mount isa,0,AU,1555785000,43,-20.73,139.49,295.15,1
203,saint-philippe,90,CA,1555787597,87,45.36,-73.48,280.93,6.2
205,kichera,96,RU,1555787612,90,55.93,110.1,262.307,0.42
206,hvittingfoss,0,NO,1555787602,46,59.48,10.01,287.04,3.6
207,carnarvon,35,ZA,1555787612,17,-30.97,22.13,290.307,3.22
208,kirakira,100,SB,1555787613,84,-10.46,161.92,299.807,1.31
209,byron bay,90,AU,1555786886,100,-28.65,153.62,294.15,2.07
210,constitucion,40,MX,1555786816,10,23.99,-104.67,299.82,2.6
211,isangel,97,VU,1555787614,82,-19.55,169.27,299.707,10
212,alamosa,1,US,1555787301,17,37.47,-105.87,292.15,2.6
213,tsumeb,1,NA,1555787615,26,-19.25,17.72,295.407,2.76
214,matara,75,PE,1555783200,50,-13.74,-72.9,287.15,3.83
215,pavlovka,97,RU,1555787615,47,52.69,47.13,280.107,0.81
216,norman wells,75,CA,1555783200,86,65.28,-126.83,273.15,2.6
217,methoni,75,GR,1555787439,62,36.82,21.7,288.15,8.69
218,olovyannaya,0,RU,1555787616,25,50.94,115.59,271.407,2.23
219,hilo,20,US,1555787480,73,19.71,-155.08,298.15,3.6
220,westport,0,IE,1555787223,77,53.8,-9.52,290.37,2.1
221,nizhniy kuranakh,100,RU,1555787617,94,58.84,125.49,267.107,2.77
222,vostok,90,RU,1555787617,48,46.45,135.83,274.907,2.34
223,opuwo,36,NA,1555787617,32,-18.06,13.84,301.607,2.14
224,dalby,90,AU,1555786557,93,-27.18,151.26,291.15,6.7
225,gat,0,SN,1555785000,60,14.69,-16.54,297.15,8.2
226,wamba,86,CD,1555787618,63,2.14,27.99,299.907,1.27
227,san rafael,6,AR,1555787619,16,-34.61,-68.33,295.307,4.71
228,caarapo,42,BR,1555787619,54,-22.63,-54.82,304.807,1.66
229,haines junction,52,CA,1555787620,50,60.75,-137.51,270.307,4.14
230,katsuura,20,JP,1555787288,82,33.93,134.5,287.04,1.5
231,sarahan,8,IN,1555787620,73,31.51,77.79,281.907,1.6
232,kralendijk,75,BQ,1555782900,66,12.15,-68.27,303.15,11.3
233,dhidhdhoo,100,MV,1555787620,71,6.88,73.1,303.007,5.59
234,luena,89,AO,1555787621,90,-11.78,19.91,291.907,0.38
235,dimitrovgrad,93,RU,1555783200,48,54.22,49.6,278.15,3
237,ipu,98,BR,1555787621,87,-4.32,-40.71,299.707,2.45
238,road town,40,VG,1555787531,58,18.42,-64.62,302.15,5.1
239,victoria,75,BN,1555785000,88,5.28,115.24,300.15,1.5
240,lixourion,0,GR,1555787155,87,38.2,20.43,290.15,2.28
241,bethel,90,US,1555784820,85,60.79,-161.76,270.15,1.5
242,acajutla,65,SV,1555787444,45,13.59,-89.83,301.48,2.68
243,kavaratti,93,IN,1555787623,70,10.57,72.64,302.407,5.46
244,balikpapan,40,ID,1555785000,94,-1.24,116.86,299.15,3.1
245,la seyne-sur-mer,0,FR,1555787616,45,43.1,5.88,293.15,5.1
246,fortuna,75,ES,1555787619,72,38.18,-1.13,289.15,4.6
247,salalah,20,OM,1555782600,74,17.01,54.1,301.15,2.6
248,lafiagi,100,NG,1555787624,34,8.85,5.42,308.907,2.04
249,pevek,100,RU,1555787624,95,69.7,170.27,259.507,4.65
250,nome,1,US,1555787623,28,30.04,-94.42,297.59,2.6
251,talnakh,0,RU,1555783200,76,69.49,88.39,251.15,3
252,marsala,20,IT,1555787523,72,37.8,12.44,290.15,7.7
253,nanortalik,86,GL,1555787625,96,60.14,-45.24,272.807,4.38
254,miles city,75,US,1555787525,55,46.41,-105.84,291.15,4.1
255,dauphin,75,CA,1555783200,36,51.15,-100.04,290.15,3.1
256,biryusinsk,73,RU,1555787626,60,55.96,97.82,270.707,0.83
257,borba,0,PT,1555787445,52,38.81,-7.46,292.59,6.2
258,yadrin,44,RU,1555787626,56,55.94,46.2,279.407,1.65
259,ejido,97,VE,1555787626,60,8.55,-71.24,298.107,1.03
260,sucua,40,EC,1555783200,78,-2.46,-78.17,298.15,2.1
261,makakilo city,75,US,1555787437,65,21.35,-158.09,298.15,3.6
262,elizabeth city,1,US,1555787614,49,36.3,-76.22,295.37,6.15
263,beringovskiy,89,RU,1555787628,81,63.05,179.32,261.807,0.69
264,gravelbourg,100,CA,1555787628,31,49.88,-106.56,285.907,4.43
265,tarakan,86,ID,1555787628,80,3.3,117.63,299.807,0.24
266,coahuayana,0,MX,1555787628,20,18.62,-100.35,311.207,1.9
267,tabou,60,CI,1555787628,76,4.42,-7.36,301.607,2.03
268,palaikastron,34,GR,1555787467,58,35.2,26.25,287.04,2.24
269,dubbo,0,AU,1555785000,88,-32.25,148.6,291.15,5.1
270,kodiak,1,US,1555787608,0,39.95,-94.76,297.15,5.7
271,pochutla,5,MX,1555785991,46,15.74,-96.47,305.93,5.1
272,codrington,90,AU,1555786886,100,-28.95,153.24,294.15,1.08
274,bathsheba,40,BB,1555783200,62,13.22,-59.52,302.15,9.3
275,boksitogorsk,71,RU,1555787630,78,59.47,33.85,276.407,1.77
279,marsa matruh,0,EG,1555787630,68,31.35,27.25,289.607,5.62
280,tuatapere,0,NZ,1555787630,80,-46.13,167.69,285.707,2.85
282,kurilsk,100,RU,1555787630,95,45.23,147.88,273.907,7.02
283,antofagasta,20,CL,1555783200,56,-23.65,-70.4,293.15,5.7
284,richards bay,34,ZA,1555787631,79,-28.77,32.06,298.007,11.98
285,pullman,90,US,1555787627,81,46.73,-117.17,287.59,4.1
286,magadan,98,RU,1555787631,93,59.56,150.8,272.007,1
287,xuddur,84,SO,1555787631,44,4.12,43.89,305.007,2.67
288,slave lake,90,CA,1555783200,65,55.28,-114.77,278.15,5.7
289,hofn,76,IS,1555787631,80,64.25,-15.21,274.007,6.05
291,havoysund,71,NO,1555784400,69,71,24.66,282.15,8.2
292,san patricio,100,PY,1555787632,75,-26.98,-56.83,301.607,0.51
293,gornyy,11,RU,1555787632,34,51.76,48.54,281.107,0.73
294,payo,100,ID,1555787633,94,-3.75,103.64,294.707,0.77
295,imbituba,0,BR,1555783200,69,-28.24,-48.67,299.15,3.1
296,ilebo,79,CD,1555787633,56,-4.33,20.59,301.107,0.29
297,faanui,42,PF,1555787634,75,-16.48,-151.75,301.807,3.17
299,mandalgovi,32,MN,1555787634,35,45.76,106.27,279.607,3.77
300,kelso,90,US,1555787630,71,46.14,-122.91,288.15,2.6
301,narsaq,75,GL,1555786200,44,60.91,-46.05,278.15,3.1
302,ilo,0,PE,1555783200,69,-17.65,-71.34,296.15,4.1
303,riyadh,0,SA,1555783200,23,24.63,46.72,301.15,7.2
304,zhigansk,100,RU,1555787635,80,66.77,123.37,266.207,1.99
305,avera,90,US,1555787634,66,33.19,-82.53,286.15,5.1
306,ajaccio,0,FR,1555786800,63,41.93,8.74,291.15,1.5
307,chara,40,GR,1555787607,81,39.42,22.43,285.37,4.1
308,dingle,48,PH,1555787636,67,11,122.67,297.707,2.64
309,kokopo,63,PG,1555787636,97,-4.34,152.27,294.607,1
310,sandy bay,0,AU,1555787596,87,-42.9,147.33,291.48,2.1
311,camacha,40,PT,1555785000,72,33.08,-16.33,291.15,8.2
312,belmonte,0,PT,1555786850,47,40.36,-7.35,293.15,0.89
314,port augusta,75,AU,1555787118,87,-32.49,137.76,289.26,2.6
315,souillac,0,FR,1555787529,33,45.6,-0.6,296.15,3.1
316,fort nelson,20,CA,1555783200,20,58.81,-122.69,281.15,5.7
317,aguadilla,40,PR,1555787416,65,18.43,-67.15,302.59,9.3
318,taungdwingyi,0,MM,1555787638,35,20,95.55,305.607,3.09
319,nove mesto na morave,0,CZ,1555787433,27,49.56,16.07,292.15,3.6
320,kaeo,55,NZ,1555787284,94,-35.1,173.78,286.48,1.62
321,karratha,97,AU,1555787638,18,-20.74,116.85,299.407,8.95
322,kangaatsiaq,100,GL,1555787638,58,68.31,-53.46,269.907,2.44
323,longyearbyen,90,NO,1555784400,86,78.22,15.63,272.15,9.8
324,bangui,90,CF,1555787419,49,4.39,18.55,303.207,0.53
325,nyurba,49,RU,1555787639,93,63.29,118.35,263.707,1.96
326,sibiti,100,CG,1555787639,97,-3.69,13.35,297.207,1.26
327,lakselv,100,NO,1555786833,83,70.05,24.96,281.15,7.7
328,orangeburg,90,US,1555787487,47,33.49,-80.86,289.15,5.7
329,aix-les-bains,0,FR,1555787557,39,45.69,5.91,295.93,1.5
330,grand-lahou,43,CI,1555787641,68,5.24,-5,302.407,3.06
332,comrat,99,MD,1555787467,50,46.3,28.66,283.907,2.38
333,keetmanshoop,0,NA,1555783200,16,-26.57,18.15,298.15,3.1
334,challans,0,FR,1555787526,35,46.85,-1.88,296.15,2.6
335,qaqortoq,75,GL,1555786200,44,60.72,-46.03,278.15,3.1
336,nuuk,90,GL,1555786964,74,64.17,-51.74,275.15,7.7
337,bure,100,NG,1555787642,9,10.52,10.33,305.907,0.45
338,svetlaya,21,RU,1555787642,75,46.54,138.33,271.007,1.41
339,husavik,100,CA,1555787405,43,50.56,-96.99,287.04,1.99
340,walla walla,90,US,1555787460,76,46.06,-118.33,289.26,2.1
341,humaita,40,AR,1555786800,57,-24.93,-65.37,302.15,3.1
342,suffolk,1,US,1555787536,43,36.73,-76.58,295.37,7.7
343,inirida,100,CO,1555787643,55,3.87,-67.92,305.907,1.98
344,comodoro rivadavia,0,AR,1555783200,40,-45.87,-67.48,295.15,2.6
345,turukhansk,89,RU,1555787644,95,65.8,87.96,259.707,4.79
346,brae,100,GB,1555784400,81,60.4,-1.35,283.15,6.7
347,borogontsy,100,RU,1555787644,93,62.67,131.17,273.107,4
348,shieli,41,KZ,1555787644,47,44.18,66.74,281.207,5.83
349,igarka,7,RU,1555787645,92,67.47,86.57,253.107,4.49
350,denizli,75,TR,1555782600,64,37.77,29.09,277.15,2.6
351,klaksvik,72,FO,1555786200,70,62.23,-6.59,280.15,4.1
352,chicama,0,PE,1555783200,78,-7.84,-79.15,296.15,4.6
353,neuquen,0,AR,1555783200,25,-38.95,-68.06,296.15,3.1
354,sulangan,48,PH,1555787646,69,11.14,123.72,301.607,3.86
355,shelburne,90,CA,1555787641,100,44.08,-80.2,282.04,2.1
356,zyryanka,46,RU,1555787646,99,65.73,150.89,261.207,0.85
357,te anau,55,NZ,1555787646,98,-45.41,167.72,277.307,1.18
358,port hedland,85,AU,1555785000,38,-20.31,118.58,296.15,4.1
359,lompoc,90,US,1555787590,87,34.64,-120.46,289.26,2.1
360,den helder,0,NL,1555787404,77,52.96,4.76,291.48,5.7
362,fukue,40,JP,1555787368,82,35.03,136.69,286.15,3.1
363,bemidji,40,US,1555787616,44,47.48,-94.89,291.48,3.02
364,kruisfontein,0,ZA,1555787649,85,-34,24.73,287.307,3.46
367,alexandria,1,US,1555787536,30,31.31,-92.44,296.48,2.1
368,manakara,61,MG,1555787650,90,-22.14,48.01,296.307,3.3
369,pisco,0,PE,1555786831,30,-13.71,-76.2,298.15,5.1
370,hadejia,83,NG,1555787650,9,12.45,10.04,307.507,2.79
371,paranapanema,2,BR,1555787650,58,-23.39,-48.72,300.607,2.59
372,ayorou,10,NE,1555787650,7,14.73,0.92,310.707,3.27
373,tynda,100,RU,1555787651,91,55.15,124.74,264.007,2.19
374,the valley,40,AI,1555786877,61,18.22,-63.06,301.48,7.7
375,ewa beach,75,US,1555787437,65,21.32,-158.01,298.15,3.6
376,ketchikan,20,US,1555782780,81,55.34,-131.65,280.15,2.6
377,alofi,63,NU,1555783200,73,-19.06,-169.92,297.15,6.7
378,cairns,0,AU,1555787591,78,-16.92,145.77,297.15,6.2
379,aitape,29,PG,1555787652,86,-3.15,142.36,298.707,1.24
380,demyansk,70,RU,1555787652,64,57.64,32.46,278.207,1.88
381,houma,100,CN,1555787652,91,35.63,111.36,285.107,0.11
382,nedjo,100,ET,1555787652,54,9.5,35.5,293.907,1.25
383,bulaevo,94,KZ,1555787653,67,54.91,70.44,276.407,3.31
384,gasan,55,PH,1555785017,85,13.32,121.85,299.26,2.94
385,verkhniy avzyan,61,RU,1555787653,77,53.53,57.54,272.707,1.58
386,airai,32,TL,1555787653,73,-8.93,125.41,296.707,2.7
387,san isidro,1,PH,1555787654,76,16.74,121.63,297.407,1
388,pogranichnyy,0,RU,1555787655,58,44.41,131.38,277.207,2.5
389,okmulgee,1,US,1555787643,33,35.62,-95.96,298.15,3.1
390,nuristan,0,UZ,1555785000,87,38.49,65.64,289.15,2.1
391,kahului,75,US,1555787449,78,20.89,-156.47,298.15,7.2
392,rio gallegos,75,AR,1555783200,54,-51.62,-69.22,287.15,14.4
393,yarim,100,YE,1555787656,70,14.3,44.38,294.307,1.3
394,punta cardon,55,VE,1555787656,72,11.61,-70.22,301.507,10.81
395,verkhovazhye,84,RU,1555787656,88,60.75,42.05,278.207,0.95
396,srivilliputtur,40,IN,1555785000,74,9.51,77.63,302.15,1.28
397,port blair,0,IN,1555787657,72,11.67,92.75,302.907,3.89
398,torbay,90,CA,1555787308,100,47.66,-52.73,279.26,2.6
399,waitati,34,NZ,1555787354,86,-45.75,170.57,285.37,4.46
400,evensk,90,RU,1555787657,93,61.92,159.24,271.607,0.99
401,skjervoy,100,NO,1555787658,69,70.03,20.97,280.007,6.84
402,rjukan,74,NO,1555787588,74,59.88,8.59,285.37,5.36
403,aranos,47,NA,1555787658,25,-24.14,19.11,299.807,4.98
404,shache,93,CN,1555787473,40,38.42,77.24,296.48,1.34
405,acapulco,75,MX,1555782060,66,16.86,-99.88,302.15,2.6
406,gorontalo,71,ID,1555787659,91,0.54,123.06,297.507,1.47
408,taunggyi,0,MM,1555787659,42,20.78,97.03,296.507,1.3
409,solnechnyy,97,RU,1555787660,85,50.72,136.64,272.407,1.98
410,nagothana,0,IN,1555785000,70,18.54,73.14,302.15,3.1
411,mandiana,83,GN,1555787660,36,10.62,-8.7,308.607,4.11
412,puerto madryn,0,AR,1555787660,28,-42.77,-65.04,293.907,3.72
413,pangnirtung,75,CA,1555783200,85,66.15,-65.72,266.15,1
414,abu kamal,73,SY,1555787660,30,34.45,40.92,292.907,2.38
416,peshkopi,0,AL,1555786200,67,41.68,20.43,288.15,2.6
417,rameswaram,92,IN,1555787661,75,9.28,79.3,303.907,5.07
418,bom jardim,75,BR,1555783200,78,-7.8,-35.59,300.15,7.7
419,madona,95,LV,1555787662,50,56.85,26.22,282.007,2.17
420,umtata,90,ZA,1555783200,71,-31.59,28.78,286.15,3.1
421,dukat,14,RS,1555787276,42,42.44,22.31,283.15,0.89
422,aykhal,90,RU,1555783200,92,65.95,111.51,266.15,2
423,timoteo,50,BR,1555787454,57,-19.58,-42.64,299.907,1.01
424,varzea da palma,0,BR,1555787663,47,-17.6,-44.73,305.207,0.44
425,northam,0,GB,1555787645,49,51.04,-4.21,294.26,3.6
426,palafrugell,75,ES,1555787536,87,41.92,3.16,288.71,4.6
427,aklavik,75,CA,1555783200,79,68.22,-135.01,268.15,2.1
428,bubaque,0,GW,1555787664,75,11.28,-15.83,298.307,5.6
429,dakar,0,SN,1555785000,60,14.69,-17.45,297.15,8.2
430,sabang,60,PH,1555787665,82,13.72,123.58,300.707,4.19
432,collie,17,AU,1555787424,66,-33.36,116.15,278.15,1.15
433,saint-augustin,0,FR,1555787529,35,44.83,-0.61,295.15,4.1
434,mecca,0,SA,1555787539,36,21.43,39.83,298.807,5.6
435,borzya,0,RU,1555787666,24,50.39,116.53,271.107,1.88
436,gravdal,0,NO,1555787523,52,59.79,5.78,285.93,4.1
437,yumen,0,CN,1555787666,24,40.29,97.04,290.007,2.85
438,mayo,90,CA,1555783200,55,63.59,-135.9,276.15,2.58
439,joshimath,83,IN,1555787667,45,30.57,79.57,281.207,1.33
440,toguchin,100,RU,1555787667,61,55.24,84.4,274.007,2.69
441,indian head,100,CA,1555786762,25,50.53,-103.67,289.26,4.02
442,kasempa,38,ZM,1555787668,97,-13.46,25.83,290.507,2.25
443,dunedin,34,NZ,1555787354,86,-45.87,170.5,285.37,4.46
444,yerbogachen,55,RU,1555787668,90,61.28,108.01,263.107,2.8
445,sao joao da barra,20,BR,1555783200,49,-21.64,-41.05,305.15,1
446,lagdo,32,CM,1555787668,15,9.06,13.67,310.107,1.69
447,axim,100,GH,1555787669,75,4.87,-2.24,301.907,3.74
449,nishihara,40,JP,1555787648,82,35.74,139.53,289.82,3.6
450,khor,99,RU,1555787669,34,47.88,134.96,280.407,3.01
451,leningradskiy,100,RU,1555787670,92,69.38,178.42,258.007,3.55
452,ibate,0,BR,1555783200,39,-21.95,-48,300.15,2.1
454,santa fe,87,AR,1555787570,36,-31.62,-60.7,299.82,1.79
455,vao,0,EE,1555787671,69,59.1,26.19,278.207,1.19
456,zaysan,97,KZ,1555787671,75,47.47,84.87,283.107,2.63
457,vilyuysk,100,RU,1555787671,95,63.75,121.63,267.107,2.14
459,ahipara,0,NZ,1555787671,75,-35.17,173.16,291.007,1.81
461,stephenville crossing,90,CA,1555783200,81,48.5,-58.44,280.15,3.1
462,smithers,20,CA,1555783200,44,54.78,-127.17,278.15,1.5
463,jambi,100,ID,1555787501,95,-1.6,103.62,297.107,0.62
464,lavrentiya,0,RU,1555787672,86,65.58,-170.99,250.607,2.02
465,shagonar,89,RU,1555787672,37,51.54,92.92,279.707,1.14
466,waipawa,69,NZ,1555787116,73,-39.94,176.59,286.48,1.59
467,kilindoni,100,TZ,1555787673,74,-7.91,39.67,302.807,7.03
468,darhan,0,MN,1555787673,28,49.49,105.92,274.107,1.51
469,vardo,40,US,1555787645,43,39.62,-77.74,295.93,7.7
470,benguela,47,AO,1555787673,84,-12.58,13.4,299.707,5.8
471,bambanglipuro,100,ID,1555787673,79,-7.95,110.28,301.307,7.63
473,hobyo,14,SO,1555787673,72,5.35,48.53,302.207,5.88
474,rathangan,0,IE,1555787631,59,53.22,-6.99,292.15,1.5
475,nianzishan,84,CN,1555787674,22,47.51,122.88,276.207,3.86
477,prattville,75,US,1555787585,36,32.46,-86.46,292.15,5.7
478,serenje,56,ZM,1555787675,97,-13.23,30.22,289.007,2.05
479,sinop,11,TR,1555787675,73,42.03,35.15,280.007,6.63
480,wukari,92,NG,1555787675,29,7.87,9.78,308.907,1.67
481,putina,40,PE,1555783200,44,-14.91,-69.87,288.15,1.5
482,sydney,20,AU,1555787404,88,-33.85,151.22,292.15,2.6
483,preobrazheniye,82,RU,1555787676,97,42.9,133.91,277.007,1.24
484,rodez,92,FR,1555787181,76,44.35,2.57,288.71,1.5
485,kudahuvadhoo,100,MV,1555787676,73,2.67,72.89,302.507,8.62
486,sedro-woolley,90,US,1555787647,76,48.5,-122.23,287.15,7.2
487,mitu,1,IR,1555787676,72,36.2,46.09,277.007,2.9
488,verkhnyaya inta,100,RU,1555787676,90,65.99,60.32,273.007,5.44
489,broome,0,GB,1555787654,59,52.47,1.45,293.15,2.6
490,pangoa,82,PE,1555787677,38,-12.12,-73,306.807,2.47
491,guanica,40,PR,1555787416,65,17.97,-66.91,302.59,9.3
492,koygorodok,94,RU,1555787677,89,60.44,51.01,274.507,1.5
493,okha,53,RU,1555787677,91,53.59,142.95,271.907,5.84
495,west lafayette,90,US,1555787485,54,40.43,-86.91,288.15,5.1
496,vaitape,42,PF,1555787678,75,-16.52,-151.75,301.807,3.17
497,sola,0,NO,1555787419,43,58.89,5.65,286.15,2.6
498,champerico,5,MX,1555786020,20,16.38,-93.6,304.15,1
499,guatire,40,VE,1555787422,66,10.47,-66.54,303.15,2.6
500,berdigestyakh,100,RU,1555787679,98,62.1,126.7,270.107,0.43
501,luderitz,0,NA,1555783200,77,-26.65,15.16,289.15,7.2
503,fort-shevchenko,100,KZ,1555787679,58,44.51,50.26,280.407,6.85
504,sooke,1,CA,1555787678,62,48.37,-123.73,287.59,6.2
505,bogande,60,BF,1555787680,22,12.97,-0.14,311.107,0.22
506,inuvik,75,CA,1555783200,79,68.36,-133.71,268.15,2.6
507,grosse pointe farms,90,CA,1555787674,86,42.41,-82.89,279.26,5.7
508,namibe,32,AO,1555787680,76,-15.19,12.15,296.407,5.41
509,santa clarita,90,US,1555787622,59,34.39,-118.54,291.48,2.6
510,apatou,69,SR,1555787681,84,5.16,-54.34,302.007,1.8
511,high level,20,CA,1555786800,31,58.52,-117.13,283.15,6.2
512,bilibino,11,RU,1555787681,93,68.06,166.44,250.907,1.69
513,nortelandia,26,BR,1555787681,55,-14.45,-56.8,305.707,1.62
514,black river,20,JM,1555783200,62,18.03,-77.85,302.15,3.6
515,laguna,5,MX,1555782300,27,27.52,-110.01,303.15,4.1
516,blairmore,90,CA,1555785949,80,49.61,-114.44,281.15,1
517,wuda,97,CN,1555787682,17,39.5,106.72,290.107,2.44
519,horconcitos,81,PA,1555787682,47,8.47,-81.8,303.307,3.36
520,magdalena,40,BO,1555783200,70,-13.26,-64.05,305.15,3.1
521,gulu,79,UG,1555787684,74,2.77,32.3,295.207,1.25
522,kulhudhuffushi,100,MV,1555787684,73,6.62,73.07,302.407,4.72
523,santander,20,PH,1555783200,78,9.42,123.33,301.15,5.1
524,panama city,1,US,1555787558,45,30.16,-85.65,295.93,10.3
525,srednekolymsk,2,RU,1555787684,82,67.46,153.71,257.507,3.89
526,vanavara,100,RU,1555787684,96,60.35,102.28,266.807,1.31
528,altagracia de orituco,99,VE,1555787633,64,9.86,-66.38,300.107,2.27
530,quelimane,0,MZ,1555783200,83,-17.88,36.89,298.15,2.1
531,praia,20,BR,1555787180,35,-20.25,-43.81,303.15,3.1
532,knin,0,HR,1555787468,23,44.04,16.2,292.04,3.1
533,college,75,US,1555787646,59,64.86,-147.8,278.71,3.1
534,meulaboh,94,ID,1555787685,80,4.14,96.13,302.207,3.1
535,huarmey,85,PE,1555787686,93,-10.07,-78.15,293.207,6.17
536,zanesville,90,US,1555787683,58,39.94,-82.01,289.26,2.6
537,gari,64,RU,1555787686,80,59.43,62.35,275.407,1.92
538,amapa,40,HN,1555786800,35,15.09,-87.97,303.15,7.7
539,mackay,20,CA,1555783200,36,53.65,-115.58,280.15,9.3
540,mao,40,DO,1555787411,48,19.55,-71.08,305.37,8.2
541,tiznit,0,MA,1555787687,78,29.7,-9.73,290.307,11.68
542,dom pedrito,55,BR,1555787408,55,-30.98,-54.67,301.407,2.72
543,elko,75,US,1555787404,50,40.83,-115.76,287.15,5.7
545,sabya,78,YE,1555787546,67,16.19,43.1,302.707,3.68
546,jijiga,88,ET,1555787687,82,9.35,42.8,291.307,1.44
547,el tigre,59,VE,1555787512,35,8.89,-64.25,307.907,5.13
549,malanje,96,AO,1555787689,74,-9.54,16.35,296.107,0.96
550,denpasar,20,ID,1555785000,88,-8.65,115.22,300.15,2.6
551,camopi,93,GF,1555787689,80,3.17,-52.33,301.807,1.96
552,shubarshi,0,KZ,1555787689,30,48.59,57.19,279.907,3.13
553,nyimba,40,ZM,1555787690,70,-14.56,30.81,295.907,1.53
554,rosetta,0,EG,1555787690,67,31.4,30.42,290.007,10.7
557,honiara,75,SB,1555783200,94,-9.43,159.96,297.15,0.53
558,strezhevoy,40,RU,1555785000,73,60.73,77.6,266.15,2
559,sabzevar,21,IR,1555787557,60,36.21,57.68,285.607,5
560,koumac,15,NC,1555787691,76,-20.56,164.28,299.907,5.29
562,clarence town,2,AU,1555787537,100,-32.59,151.78,292.59,2.6
563,saldanha,28,PT,1555787691,43,41.42,-6.55,292.507,5.09
565,amahai,100,ID,1555787482,89,-3.31,129,300.93,1.38
566,saint-francois,0,FR,1555786886,59,46.42,3.91,289.15,1.5
568,boyolangu,100,ID,1555787692,91,-8.09,111.9,295.907,1.31
569,tha chang,0,TH,1555787570,66,14.76,100.39,304.26,5.34
570,blackwater,0,GB,1555787645,40,51.33,-0.78,294.82,4.1
571,hami,55,CN,1555787693,22,42.84,93.51,295.507,4.51
572,miraflores,94,CO,1555787693,81,5.2,-73.14,291.807,1.84
573,bouake,20,CI,1555783200,66,7.69,-5.02,303.15,2.1
575,yamada,75,JP,1555787491,87,36.58,137.08,282.59,1.5
576,am timan,28,TD,1555787694,12,11.04,20.28,310.807,1.96
577,tarabuco,20,BO,1555783200,40,-19.18,-64.92,296.15,2.1
578,tete,20,MZ,1555783200,69,-16.16,33.59,298.15,2.6
579,eureka,40,US,1555787407,87,40.8,-124.16,284.82,8.2
580,gondanglegi,100,ID,1555787696,88,-7.75,112.01,297.007,0.66
581,kemin,99,KG,1555787696,93,42.79,75.7,280.007,2.92
582,ewo,100,CG,1555787696,80,-0.88,14.81,298.607,2.98
583,churapcha,99,RU,1555787696,93,62,132.43,272.607,3.9
584,ngunguru,4,NZ,1555787284,94,-35.62,174.5,286.48,1.48
585,anchorage,75,US,1555787623,55,61.22,-149.89,275.93,0.32
586,porto walter,85,BR,1555787697,80,-8.27,-72.74,302.707,1.53
587,havre-saint-pierre,90,CA,1555783200,63,50.23,-63.6,278.15,2.6
588,prince rupert,75,CA,1555783200,75,54.32,-130.32,279.15,2.1
589,bada,0,NG,1555787698,5,12.41,4.51,309.107,3.09
590,prainha,100,BR,1555787698,81,-1.8,-53.48,302.807,1.94
592,lukow,80,PL,1555787439,43,51.93,22.38,284.82,2.79
594,saint joseph,40,US,1555787340,40,39.77,-94.85,297.15,1.5
595,santa vitoria do palmar,70,BR,1555787700,55,-33.52,-53.37,295.907,4.52
596,cherskiy,42,RU,1555787700,92,68.75,161.3,253.207,1.43
597,sarkand,82,KZ,1555787701,85,45.41,79.91,283.707,0.65
598,arica,0,CL,1555783200,56,-18.48,-70.32,296.15,4.6
599,mitsamiouli,75,KM,1555783200,94,-11.38,43.28,299.15,2.6
600,san cristobal,40,EC,1555786877,63,-0.39,-78.55,294.15,5.7
601,haputale,90,LK,1555783800,100,6.77,80.96,298.15,1.5
602,hellvik,0,NO,1555787523,50,59.92,5.78,285.93,9.3
603,palmer,75,US,1555787649,55,61.6,-149.11,275.93,2.05
604,pilar,0,AR,1555787699,49,-34.46,-58.91,298.15,4.6
605,oxford,90,US,1555787645,62,33.61,-85.83,288.15,4.1
606,kushima,100,JP,1555787414,80,31.5,131.29,285.93,0.95
607,saravan,90,AM,1555786200,81,39.72,45.65,280.15,2.1
608,zhongshu,0,CN,1555787705,39,24.52,103.77,290.707,1.95
609,ambilobe,78,MG,1555787705,78,-13.19,49.05,298.407,4.42
610,takayama,63,JP,1555787607,86,36.14,137.25,282.59,0.89
611,bonavista,99,CA,1555786811,88,48.65,-53.11,275.93,0.89
612,hua hin,82,TH,1555787706,89,12.57,99.96,296.607,1.5
613,khuzhir,0,RU,1555787706,65,53.19,107.35,263.807,1.22
614,taoudenni,0,ML,1555787706,9,22.68,-3.98,306.707,7.95
615,luangwa,0,MZ,1555787706,64,-15.62,30.4,294.407,1.03
616,baruun-urt,54,MN,1555787707,27,46.68,113.28,275.107,3.91
617,garissa,85,KE,1555787707,48,-0.46,39.64,305.507,8.55
618,kropotkin,100,RU,1555787707,63,45.43,40.58,280.207,4.1
619,batemans bay,1,AU,1555786913,88,-35.71,150.18,290.37,1.19
620,north bend,90,US,1555787432,76,43.41,-124.22,284.26,6.2
621,maningrida,45,AU,1555787708,82,-12.05,134.23,298.107,3.41
622,urgut,40,UZ,1555785000,93,39.41,67.25,286.15,6.2
